City_ID,City,Lat,Lng,Max Temp,Humidity,Cloudiness,Wind Speed,Country,Date
0,adamstown,-25.066,-130.1015,25.22,88,100,6.3,PN,1682365851
1,mugia,43.1041,-9.2179,16.62,92,100,5.08,ES,1682365851
2,west island,-12.1568,96.8225,26.99,74,75,9.26,CC,1682365851
3,fort st. john,56.2499,-120.8529,2.94,87,100,2.57,CA,1682365851
4,papatowai,-46.5619,169.4708,12.57,74,75,10.89,NZ,1682365851
5,yellowknife,62.456,-114.3525,8.29,46,20,1.03,CA,1682365852
6,port-aux-francais,-49.35,70.2167,4.28,64,38,8.28,TF,1682365604
7,alofi,-19.0595,-169.9187,22.94,94,75,2.06,NU,1682365852
8,la'ie,21.6477,-157.9253,27.98,72,5,0.43,US,1682365852
9,isafjordur,66.0755,-23.124,0.0,66,94,4.48,IS,1682365853
10,igarka,67.4667,86.5833,1.22,96,100,8.25,RU,1682365853
11,lakatoro,-16.0999,167.4164,25.91,82,100,2.52,VU,1682365853
12,anadyr,64.75,177.4833,-6.72,58,0,4.0,RU,1682365853
13,fuerte olimpo,-21.0415,-57.8738,29.5,54,77,1.89,PY,1682365853
14,baie-comeau,49.2168,-68.1489,5.82,75,0,9.26,CA,1682365854
15,bethel,41.3712,-73.414,15.57,43,75,3.09,US,1682365820
16,pearsall,28.8922,-99.095,23.54,63,93,3.22,US,1682365854
17,ambon,-3.6954,128.1814,28.31,87,20,3.09,ID,1682365854
18,chokwe,-24.5333,32.9833,20.74,76,65,2.38,MZ,1682365854
19,demba,-5.51,22.2667,21.67,96,100,1.23,CD,1682365854
20,nikolayevsk-on-amure,53.1406,140.73,-2.6,87,97,2.34,RU,1682365626
21,syumsi,57.1111,51.6149,12.82,52,68,3.28,RU,1682365854
22,toamasina,-18.1667,49.3833,25.0,94,20,2.06,MG,1682365855
23,mata de sao joao,-12.5303,-38.2992,28.86,74,5,2.14,BR,1682365855
24,enewetak,11.3474,162.3373,26.23,85,100,7.76,MH,1682365855
25,ushuaia,-54.8,-68.3,4.81,81,100,2.57,AR,1682365602
26,klyuchi,52.2667,79.1667,6.15,61,25,4.15,RU,1682365855
27,nadym,65.5333,72.5167,-3.76,84,100,11.84,RU,1682365856
28,puerto natales,-51.7236,-72.4875,10.25,81,75,5.66,CL,1682365790
29,lebu,-37.6167,-73.65,14.37,74,13,2.81,CL,1682365856
30,port mathurin,-19.6833,63.4167,26.12,84,99,8.89,MU,1682365856
31,dezhou,37.4486,116.2925,7.31,89,81,4.89,CN,1682365856
32,stettler,52.3168,-112.7186,12.08,53,100,1.07,CA,1682365856
33,ilulissat,69.2167,-51.1,2.01,87,20,4.12,GL,1682365558
34,tiksi,71.6872,128.8694,-5.67,96,100,5.12,RU,1682365857
35,avarua,-21.2078,-159.775,25.03,69,20,6.69,CK,1682365857
36,puerto armuelles,8.2833,-82.8667,31.99,65,26,2.78,PA,1682365857
37,happy valley-goose bay,53.3168,-60.3315,11.17,50,40,4.63,CA,1682365857
38,sychevka,55.8252,34.2736,10.97,62,43,2.66,RU,1682365857
39,jamestown,42.097,-79.2353,6.77,77,100,4.63,US,1682365808
40,anna regina,7.2644,-58.5077,27.53,76,71,4.11,GY,1682365858
41,ta'if,21.2703,40.4158,16.56,54,89,0.85,SA,1682365858
42,hongch'on,37.6918,127.8857,6.84,77,100,1.16,KR,1682365858
43,north ward,-19.2454,146.8075,23.95,73,100,6.17,AU,1682365858
44,griffith,41.5284,-87.4237,13.37,40,100,5.66,US,1682365858
45,punta arenas,-53.15,-70.9167,7.06,93,100,2.57,CL,1682365859
46,gulbene,57.1777,26.7529,13.17,59,58,3.76,LV,1682365859
47,jianguang,28.1938,115.7836,12.58,92,100,1.18,CN,1682365859
48,anamosa,42.1083,-91.2852,13.73,31,100,3.14,US,1682365859
49,atafu village,-8.5421,-172.5159,28.85,74,100,4.61,TK,1682365859
50,kingston,17.997,-76.7936,29.02,72,40,1.34,JM,1682365436
51,edinburgh of the seven seas,-37.0676,-12.3116,15.87,63,90,9.5,SH,1682365859
52,whitehorse,60.7161,-135.0538,3.43,86,100,8.75,CA,1682365657
53,hastings,50.8552,0.5729,7.94,56,100,7.37,GB,1682365860
54,mukalla,14.5425,49.1242,27.79,72,5,1.39,YE,1682365860
55,fort bragg,35.139,-79.006,20.51,38,0,1.54,US,1682365579
56,blackmans bay,-43.0167,147.3167,10.07,91,100,2.48,AU,1682365860
57,lautoka,-17.6167,177.4667,22.92,88,75,3.09,FJ,1682365861
58,kirensk,57.7853,108.1119,-1.99,90,100,1.03,RU,1682365861
59,santyoku,37.4406,129.1708,9.34,66,90,4.19,KR,1682365861
60,waitangi,-43.9535,-176.5597,9.9,78,85,1.34,NZ,1682365861
61,whakatane,-37.9585,176.9854,6.05,82,0,0.45,NZ,1682365861
62,katsuura,35.1333,140.3,12.53,60,92,4.7,JP,1682365862
63,hawaiian paradise park,19.5933,-154.9731,27.07,74,75,3.09,US,1682365862
64,dunedin,-45.8742,170.5036,13.93,10,100,7.95,NZ,1682365638
65,monrovia,6.3005,-10.7969,27.87,82,89,3.67,LR,1682365862
66,barra do corda,-5.5,-45.25,26.26,81,100,1.72,BR,1682365862
67,san carlos,9.6612,-68.5827,31.51,50,98,0.77,VE,1682365862
68,al wafrah,28.6392,47.9306,27.25,38,100,3.68,KW,1682365863
69,cruzeiro do sul,-29.5128,-51.9853,30.27,47,0,1.89,BR,1682365863
70,kamloops,50.6665,-120.3192,12.55,50,75,4.63,CA,1682365859
71,franceville,-1.6333,13.5836,24.12,83,54,1.05,GA,1682365863
72,vorgashor,67.5833,63.95,-6.88,94,100,4.14,RU,1682365863
73,nicoya,10.1483,-85.452,33.03,49,68,4.12,CR,1682365864
74,greymouth,-42.4667,171.2,10.83,80,100,1.17,NZ,1682365864
75,grytviken,-54.2811,-36.5092,1.78,89,46,6.05,GS,1682365864
76,kenora,49.8167,-94.4337,4.54,41,75,2.57,CA,1682365753
77,kosmach,48.7509,24.3673,8.56,82,100,1.93,UA,1682365865
78,new norfolk,-42.7826,147.0587,10.72,88,100,0.45,AU,1682365865
79,rabo de peixe,37.8,-25.5833,17.73,94,75,3.6,PT,1682365865
80,thompson,55.7435,-97.8558,4.09,45,20,2.06,CA,1682365865
81,dogondoutchi,13.6393,4.0287,34.47,19,61,3.03,NE,1682365866
82,saint helena,-15.95,-5.7,19.96,66,69,5.81,SH,1682365866
83,alice springs,-23.7,133.8833,10.75,87,0,3.2,AU,1682365866
84,alesund,62.4723,6.1549,3.51,69,75,9.26,NO,1682365866
85,carrizo springs,28.5219,-99.8606,20.97,56,100,2.29,US,1682365866
86,kodiak,57.79,-152.4072,4.73,38,0,6.17,US,1682365867
87,inari,68.906,27.0288,-2.89,93,75,0.45,FI,1682365867
88,rondonopolis,-16.4708,-54.6356,30.05,56,55,2.61,BR,1682365569
89,rangkasbitung,-6.3591,106.2494,24.72,93,88,0.59,ID,1682365867
90,aasiaat,68.7098,-52.8699,0.13,93,93,2.59,GL,1682365867
91,longyearbyen,78.2186,15.6401,-8.09,67,0,3.09,SJ,1682365868
92,egilsstadir,65.2653,-14.3948,-1.05,69,75,6.17,IS,1682365868
93,hermanus,-34.4187,19.2345,13.78,87,0,4.9,ZA,1682365868
94,yeppoon,-23.1333,150.7333,18.88,68,82,8.77,AU,1682365869
95,acapulco de juarez,16.8634,-99.8901,31.9,58,20,5.14,MX,1682365803
96,colonia,50.9333,6.95,10.54,71,40,5.14,DE,1682365869
97,arno,60.1167,18.6333,0.99,87,100,3.55,SE,1682365869
98,wailua homesteads,22.0669,-159.378,24.51,82,20,2.06,US,1682365595
99,kaa-khem,51.6833,94.7333,3.32,51,68,2.2,RU,1682365869
100,santa marta,11.2408,-74.199,31.05,60,75,3.6,CO,1682365729
101,port elizabeth,-33.918,25.5701,20.61,89,75,5.66,ZA,1682365637
102,barra de santo antonio,-9.4047,-35.5072,26.6,81,96,3.3,BR,1682365870
103,badger,64.8,-147.5333,-8.07,50,75,5.66,US,1682365870
104,tlahualilo de zaragoza,26.1167,-103.45,27.97,19,0,1.18,MX,1682365870
105,afaahiti,-17.75,-149.2833,27.93,82,88,5.2,PF,1682365870
106,ciudad guayana,8.3533,-62.6528,33.07,58,94,1.59,VE,1682365871
107,bilibino,68.0546,166.4372,-9.84,67,1,1.65,RU,1682365871
108,dzhalagash,45.0833,64.6667,17.02,33,7,6.2,KZ,1682365871
109,abancay,-13.6339,-72.8814,21.64,56,46,2.32,PE,1682365871
110,narayangarh,30.4833,77.1333,23.25,31,6,2.39,IN,1682365872
111,flying fish cove,-10.4217,105.6791,27.02,79,95,6.05,CX,1682365724
112,ribeira grande,38.5167,-28.7,18.22,88,20,4.92,PT,1682365872
113,eyl,7.9803,49.8164,28.51,76,76,6.05,SO,1682365873
114,lihue,21.9789,-159.3672,24.85,81,20,2.06,US,1682365873
115,kerikeri,-35.2268,173.9474,11.34,77,0,1.22,NZ,1682365776
116,uray,60.1247,64.7758,1.64,58,99,1.15,RU,1682365873
117,robertsport,6.7533,-11.3686,28.52,80,51,3.94,LR,1682365874
118,petropavlovsk-kamchatsky,53.0452,158.6483,0.33,69,40,1.0,RU,1682365874
119,toliara,-23.35,43.6667,21.91,84,0,2.84,MG,1682365874
120,kralendijk,12.15,-68.2667,29.99,66,40,2.06,BQ,1682365874
121,manadhoo,5.7667,73.3833,29.32,67,100,2.32,MV,1682365874
122,hamilton,39.1834,-84.5333,10.69,46,100,3.09,US,1682365188
123,ploudalmezeau,48.5333,-4.65,10.71,76,40,2.06,FR,1682365875
124,laojunmiao,39.8333,97.7333,5.66,31,0,2.06,CN,1682365875
125,san pedro de lloc,-7.4328,-79.5058,26.43,68,100,5.37,PE,1682365875
126,st. john's,47.5649,-52.7093,4.32,94,100,8.75,CA,1682365058
127,port alfred,-33.5906,26.891,20.1,92,100,1.34,ZA,1682365875
128,ketchikan,55.3422,-131.6461,8.26,71,100,6.69,US,1682365876
129,vicuna,-30.0319,-70.7081,13.85,34,0,3.4,CL,1682365876
130,margaret river,-33.95,115.0667,12.96,78,100,7.69,AU,1682365876
131,statesboro,32.4488,-81.7832,24.89,33,0,2.57,US,1682365352
132,marsh harbour,26.5412,-77.0636,24.52,72,57,4.25,BS,1682365876
133,polyarnyy,69.1989,33.4478,-6.94,83,9,4.15,RU,1682365713
134,buala,-8.145,159.5921,26.42,85,100,0.79,SB,1682365876
135,georgetown,5.4112,100.3354,25.97,94,20,1.54,MY,1682365658
136,albany,42.6001,-73.9662,12.54,54,85,0.89,US,1682365818
137,lompoc,34.6391,-120.4579,24.27,67,20,7.2,US,1682365877
138,sirte,31.2089,16.5887,17.19,80,89,2.64,LY,1682365877
139,nova sintra,14.8667,-24.7167,20.23,75,2,8.79,CV,1682365675
140,kuala perlis,6.4,100.1333,26.99,89,100,3.3,MY,1682365877
141,sisimiut,66.9395,-53.6735,1.36,97,100,1.66,GL,1682365878
142,shiqian,27.5225,108.2281,8.97,96,100,0.59,CN,1682365878
143,ziro,27.6333,93.8333,8.13,92,11,0.95,IN,1682365878
144,gaspe,48.8334,-64.4819,3.12,87,100,3.6,CA,1682365878
145,limbazi,57.5129,24.7194,13.34,95,97,0.99,LV,1682365879
146,vila franca do campo,37.7167,-25.4333,18.23,94,100,3.46,PT,1682365879
147,mozhga,56.4447,52.2276,10.95,56,0,3.02,RU,1682365879
148,awjilah,29.1081,21.2869,25.93,27,97,6.32,LY,1682365879
149,cabo san lucas,22.8909,-109.9124,29.78,51,81,4.9,MX,1682365879
150,hirara,24.8,125.2833,23.15,83,100,1.54,JP,1682365879
151,san francisco de la paz,14.9,-86.2,35.84,20,64,1.54,HN,1682365880
152,iqaluit,63.7506,-68.5145,-0.15,100,100,2.57,CA,1682365643
153,utrik,11.2278,169.8474,26.77,83,90,9.46,MH,1682365880
154,cole harbour,44.6724,-63.4751,11.77,77,100,6.71,CA,1682365880
155,iskateley,67.6803,53.1512,-5.81,92,100,2.41,RU,1682365626
156,yuktae-dong,40.0247,128.1597,7.68,64,100,1.51,KP,1682365881
157,sola,-13.8833,167.55,27.41,75,73,5.36,VU,1682365881
158,muroto-misakicho,33.2833,134.15,11.87,73,100,6.9,JP,1682365881
159,bandundu,-3.3167,17.3667,24.99,79,100,0.5,CD,1682365881
160,tolanaro,-25.0319,46.9987,23.04,88,75,2.06,MG,1682365881
161,fale old settlement,-9.3852,-171.2468,28.68,74,72,3.4,TK,1682365881
162,sampit,-2.5333,112.95,23.08,99,100,0.8,ID,1682365882
163,labrador city,52.9463,-66.9114,8.95,46,0,3.6,CA,1682365882
164,south hedland,-20.4089,118.5983,23.96,94,100,2.06,AU,1682365882
165,nuku'alofa,-21.1333,-175.2,20.19,100,40,1.03,TO,1682365882
166,sirre,8.3167,39.4833,18.39,66,99,3.68,ET,1682365882
167,plettenberg bay,-34.0527,23.3716,17.47,91,99,2.93,ZA,1682365883
168,weligama,5.9667,80.4167,26.12,87,100,1.39,LK,1682365883
169,tsiombe,-25.3,45.4833,19.87,87,0,1.75,MG,1682365883
170,dawukou,39.0419,106.3958,8.66,60,31,1.68,CN,1682365883
171,puerto ayora,-0.7393,-90.3518,29.98,85,100,3.58,EC,1682365883
172,holualoa,19.6228,-155.9522,25.86,72,0,3.6,US,1682365883
173,boende,-0.2167,20.8667,22.01,84,99,1.18,CD,1682365884
174,betio village,1.358,172.9211,28.02,79,100,5.82,KI,1682365884
175,santana,-0.0583,-51.1817,31.1,74,20,4.63,BR,1682365726
176,korkuteli,37.065,30.1957,9.7,75,4,0.26,TR,1682365884
177,vilyuchinsk,52.9306,158.4028,1.15,79,54,3.06,RU,1682365884
178,bredasdorp,-34.5322,20.0403,16.28,77,0,4.33,ZA,1682365885
179,hithadhoo,-0.6,73.0833,28.99,74,99,3.86,MV,1682365885
180,praia,14.9215,-23.5087,25.3,65,20,8.23,CV,1682365816
181,shimoda,34.6667,138.95,10.61,71,52,5.25,JP,1682365885
182,les cayes,18.2,-73.75,28.69,55,9,3.82,HT,1682365885
183,invercargill,-46.4,168.35,11.68,82,87,0.89,NZ,1682365885
184,banda aceh,5.5577,95.3222,26.96,78,100,1.97,ID,1682365886
185,xilin hot,43.9667,116.0333,-0.38,62,100,8.65,CN,1682365886
186,tver,56.8619,35.8931,10.87,61,11,2.71,RU,1682365886
187,mundra,22.85,69.7333,27.69,54,99,5.84,IN,1682365886
188,luquillo,18.3725,-65.7166,29.07,69,75,5.66,PR,1682365886
189,howard springs,-12.497,131.047,25.95,80,60,3.0,AU,1682365886
190,smolensk,55.0,33.0,10.66,70,29,3.04,RU,1682365887
191,weno,7.4515,151.8468,26.97,89,100,0.0,FM,1682365887
192,stanley,54.868,-1.6985,4.18,71,20,3.6,GB,1682365634
193,antonio enes,-16.2325,39.9086,24.22,77,6,3.55,MZ,1682365888
194,casablanca,33.5928,-7.6192,21.12,77,0,3.09,MA,1682365888
195,dabou,5.3256,-4.3769,27.62,84,82,4.1,CI,1682365888
196,watsa,3.0372,29.5355,18.8,87,29,1.59,CD,1682365888
197,tralee,52.2704,-9.7026,5.34,78,13,2.37,IE,1682365888
198,shakawe,-18.3667,21.85,25.95,31,66,2.02,BW,1682365888
199,mount isa,-20.7333,139.5,20.87,46,12,2.57,AU,1682365772
200,merrill,45.1805,-89.6835,7.6,52,100,0.0,US,1682365889
201,cannonvale,-20.2833,148.7,24.66,72,99,9.98,AU,1682365889
202,codo,-4.4553,-43.8856,28.28,69,92,1.05,BR,1682365889
203,fada,9.5667,8.3,25.02,47,93,1.91,NG,1682365890
204,saipan,15.1355,145.701,27.39,100,75,6.17,MP,1682365694
205,miranda,3.2499,-76.2281,27.07,53,100,1.03,CO,1682365890
206,nogliki,51.8333,143.1667,-1.32,81,100,5.21,RU,1682365884
207,kittila,67.6647,24.8936,-0.92,55,0,2.57,FI,1682365890
208,olonkinbyen,70.9221,-8.7187,-4.02,83,91,7.92,SJ,1682365673
209,sechura,-5.5569,-80.8222,28.64,63,100,4.89,PE,1682365891
210,el nido,11.1858,119.3956,27.17,78,24,1.19,PH,1682365891
211,sarangani,5.4033,125.4636,28.61,76,100,6.73,PH,1682365891
212,alvorada,-12.48,-49.1247,30.3,49,21,2.54,BR,1682365891
213,newman,37.3138,-121.0208,25.13,41,17,0.89,US,1682365891
214,nar'yan-mar,67.6713,53.087,-5.76,92,100,2.37,RU,1682365892
215,kourou,5.1552,-52.6478,24.03,96,100,2.75,GF,1682365892
216,tual,-5.6667,132.75,28.11,73,20,1.23,ID,1682365892
217,yeniseysk,58.4497,92.1703,1.35,93,97,2.06,RU,1682365892
218,richards bay,-28.783,32.0377,22.39,74,100,4.79,ZA,1682365892
219,kruisfontein,-34.0033,24.7314,19.38,89,86,3.59,ZA,1682365820
220,bloemfontein,-29.1211,26.214,15.71,59,100,1.54,ZA,1682365893
221,mossel bay,-34.1831,22.146,17.96,82,94,2.56,ZA,1682365893
222,port lincoln,-34.7333,135.8667,18.44,57,52,2.45,AU,1682365892
223,aoulef,26.9667,1.0833,28.91,8,0,4.78,DZ,1682365893
224,sao jose da coroa grande,-8.8978,-35.1478,25.69,84,70,3.39,BR,1682365893
225,sogndal,61.2283,7.1003,6.21,60,100,4.63,NO,1682365893
226,lauro de freitas,-12.8944,-38.3272,29.01,74,40,4.12,BR,1682365894
227,crixas,-14.5489,-49.9692,29.08,63,8,1.55,BR,1682365894
228,sitka,57.0531,-135.33,5.93,75,90,4.44,US,1682365889
229,burela de cabo,43.65,-7.4,15.65,77,100,4.21,ES,1682365895
230,mercedes,-34.6515,-59.4307,22.66,45,100,3.75,AR,1682365895
231,yatou,37.15,122.3833,8.16,33,100,1.64,CN,1682365895
232,chonchi,-42.6128,-73.8092,13.95,67,100,1.99,CL,1682365896
233,qusmuryn,52.4503,64.6311,12.44,46,16,3.03,KZ,1682365896
234,jayapura,-2.5333,140.7,25.66,92,86,2.06,ID,1682365896
235,bella vista,36.4295,-94.2316,20.18,26,0,4.12,US,1682365680
236,kwang binh,17.4833,106.6,24.23,90,44,1.29,VN,1682365751
237,chiang kham,19.5233,100.3,24.42,50,0,1.22,TH,1682365897
238,mahdia,35.5047,11.0622,19.97,63,45,3.73,TN,1682365897
239,sosnytsya,51.5239,32.4999,9.36,81,40,2.5,UA,1682365897
240,uturoa,-16.7333,-151.4333,26.83,81,25,5.02,PF,1682365898
241,jucas,-6.5253,-39.5275,30.42,40,65,2.23,BR,1682365898
242,madaoua,14.073,5.96,32.77,21,70,1.19,NE,1682365898
243,nova vicosa,-17.8919,-39.3719,25.3,71,37,5.31,BR,1682365898
244,fisterra,42.9049,-9.2629,16.53,91,100,4.2,ES,1682365899
245,ta`u,-14.2336,-169.5144,27.33,78,26,4.13,AS,1682365705
246,joao pinheiro,-17.7425,-46.1725,22.49,67,100,3.95,BR,1682365899
247,beberibe,-4.1797,-38.1306,26.89,79,43,3.04,BR,1682365899
248,tazovsky,67.4667,78.7,-8.53,96,97,4.0,RU,1682365900
249,mudu,31.252,120.5118,11.8,68,100,2.06,CN,1682365900
250,amga,60.8953,131.9608,-3.6,95,100,2.62,RU,1682365900
251,dudinka,69.4058,86.1778,2.57,81,100,7.91,RU,1682365900
252,constantia,44.1833,28.65,8.38,85,100,5.45,RO,1682365800
253,khvoynaya,58.9,34.5333,10.59,66,23,2.44,RU,1682365900
254,cox's bazar,21.4532,91.9798,24.84,75,1,3.2,BD,1682365901
255,villiers,-27.0303,28.6006,16.54,29,100,1.73,ZA,1682365901
256,kudahuvadhoo,2.6708,72.8944,28.66,76,97,3.02,MV,1682365657
257,kalach,50.4258,41.0261,11.67,83,100,4.01,RU,1682365901
258,howrah,22.5892,88.3103,24.0,83,20,0.0,IN,1682365901
259,souillac,-20.5167,57.5167,25.21,88,20,1.54,MU,1682365901
260,turkmenbasy,40.0222,52.9552,19.43,48,0,2.06,TM,1682365901
261,papao,-17.75,-149.55,28.82,83,92,5.5,PF,1682365901
262,tomatlan,19.9333,-105.25,32.44,29,100,4.8,MX,1682365902
263,yingkou,40.6648,122.2283,9.56,72,100,6.54,CN,1682365902
264,college,64.8569,-147.8028,-8.03,51,75,5.66,US,1682365902
265,magadan,59.5667,150.8,0.85,74,100,5.88,RU,1682365746
266,gadzhiyevo,69.2551,33.3362,-7.82,84,7,4.59,RU,1682365902
267,sept-iles,50.2001,-66.3821,6.29,73,40,6.17,CA,1682365667
268,downpatrick,54.3263,-5.7035,7.26,73,7,3.21,GB,1682365902
269,suva,-18.1416,178.4415,21.71,94,75,1.54,FJ,1682365903
270,mukharram al fawqani,34.8151,37.0861,12.37,66,0,3.07,SY,1682365903
271,ngetkib,7.3645,134.5148,23.14,100,40,0.0,PW,1682365903
272,mount gambier,-37.8333,140.7667,13.9,73,50,3.04,AU,1682365883
273,ochakiv,46.6128,31.5498,10.8,72,4,3.23,UA,1682365903
274,bata,1.8639,9.7658,28.92,84,40,2.06,GQ,1682365903
275,deschutes river woods,43.9915,-121.3584,10.92,39,0,5.14,US,1682365903
276,hasaki,35.7333,140.8333,9.56,52,74,5.2,JP,1682365904
277,brindisi,40.5833,17.6667,16.54,66,0,5.07,IT,1682365904
278,qaqortoq,60.7167,-46.0333,2.72,79,23,2.89,GL,1682365904
279,san rafael,-34.6177,-68.3301,24.3,29,0,3.59,AR,1682365836
280,fountain inn,34.689,-82.1957,20.9,34,0,2.68,US,1682365904
281,solnechnyy,50.7214,136.6319,-1.72,60,9,3.03,RU,1682365904
282,sidi ifni,29.3797,-10.173,25.86,72,15,0.75,MA,1682365904
283,la mira,18.035,-102.3266,29.9,52,9,4.58,MX,1682365905
284,larreynaga,12.6769,-86.5719,36.94,31,42,1.93,NI,1682365905
285,shenjiamen,29.9576,122.298,14.15,88,100,5.83,CN,1682365905
286,bubaque,11.2833,-15.8333,25.9,72,1,7.07,GW,1682365905
287,ebon,4.582,168.6964,28.1,79,100,7.42,MH,1682365905
288,talnakh,69.4865,88.3972,2.34,77,88,4.07,RU,1682365894
289,port saint john's,-31.6229,29.5448,23.26,62,100,1.82,ZA,1682365905
290,peniche,39.3558,-9.3811,16.63,89,55,4.09,PT,1682365906
291,novo horizonte,-21.4681,-49.2208,25.32,61,1,2.29,BR,1682365906
292,al ghayzah,16.2079,52.176,28.28,74,24,5.31,YE,1682365906
293,qamdo,31.1667,97.2333,-3.67,31,48,1.97,CN,1682365906
294,bobo-dioulasso,11.1771,-4.2979,36.25,28,0,1.03,BF,1682365906
295,al kharijah,25.4514,30.5464,26.96,16,35,4.41,EG,1682365906
296,usinsk,65.9939,57.5281,-3.71,89,100,3.22,RU,1682365907
297,mount pearl,47.5166,-52.7813,3.31,94,100,8.75,CA,1682365899
298,luderitz,-26.6481,15.1594,17.06,89,1,4.05,NA,1682365884
299,emiliano zapata,18.8333,-99.1833,31.48,26,100,2.23,MX,1682365907
300,yarovoye,52.9273,78.58,4.86,52,30,5.99,RU,1682365907
301,general acha,-37.377,-64.6043,23.36,31,94,5.86,AR,1682365880
302,ust-nera,64.5667,143.2,-11.35,95,81,3.09,RU,1682365660
303,kovdor,67.5662,30.4758,-9.92,94,29,1.06,RU,1682365907
304,mulayjah,27.271,48.4242,29.03,30,89,2.4,SA,1682365907
305,mildura,-34.2,142.15,16.65,54,0,3.36,AU,1682365908
306,nurota,40.5614,65.6886,17.49,25,94,6.09,UZ,1682365908
307,prince george,53.9166,-122.753,10.14,68,75,4.12,CA,1682365790
308,nelson bay,-32.7167,152.15,17.22,98,7,2.24,AU,1682365908
309,tagta,41.6504,59.9164,20.97,26,0,6.17,TM,1682365908
310,pisco,-13.7,-76.2167,27.03,57,0,10.8,PE,1682365888
311,feodosiya,45.0333,35.3833,11.5,75,100,1.12,UA,1682365908
312,dolores,-36.3132,-57.6792,21.79,54,10,4.88,AR,1682365909
313,halifax,44.6453,-63.5724,12.05,77,100,6.71,CA,1682365718
314,golere,16.2557,-14.1017,37.64,12,3,1.59,SN,1682365909
315,santiago de cao,-7.9589,-79.2392,26.07,65,96,5.66,PE,1682365909
316,yuzhno-kurilsk,44.0306,145.8556,4.12,61,15,6.46,RU,1682365770
317,tokamachi,37.1333,138.7667,1.25,57,16,1.97,JP,1682365909
318,myeik,12.4333,98.6,26.48,83,44,1.75,MM,1682365910
319,rio grande da serra,-23.7442,-46.3983,22.86,79,1,3.63,BR,1682365910
320,lata,40.1629,-8.3327,17.12,89,98,1.32,PT,1682365910
321,rongelap,11.1635,166.8941,26.98,83,100,8.35,MH,1682365910
322,bama,11.5221,13.6856,32.11,39,100,3.71,NG,1682365910
323,morwell,-38.2333,146.4,11.12,96,2,0.52,AU,1682365910
324,road town,18.4167,-64.6167,29.05,65,40,3.09,VG,1682365644
325,saint-pierre,-21.3393,55.4781,25.82,78,0,1.54,RE,1682365911
326,san antonio de pale,-1.4014,5.6325,28.45,69,56,1.07,GQ,1682365911
327,kununurra,-15.7667,128.7333,19.99,94,5,0.0,AU,1682365911
328,withernsea,53.7311,0.0335,6.16,63,69,8.89,GB,1682365911
329,saint-louis,16.3333,-15.0,39.8,12,1,3.61,SN,1682365911
330,kainantu,-6.2887,145.8655,15.62,97,80,0.49,PG,1682365911
331,mata-utu,-13.2816,-176.1745,28.23,72,98,2.51,WF,1682365912
332,mareeba,-17.0,145.4333,21.91,90,95,1.3,AU,1682365912
333,kodinsk,58.6881,99.1844,-1.45,96,100,1.6,RU,1682365912
334,aykhal,66.0,111.5,-12.76,100,97,2.13,RU,1682365912
335,sur,22.5667,59.5289,25.54,64,100,6.0,OM,1682365913
336,balcarce,-37.8462,-58.2552,22.44,68,40,1.34,AR,1682365913
337,korla,41.7597,86.1469,13.67,36,4,1.19,CN,1682365913
338,itaituba,-4.2761,-55.9836,34.09,59,40,4.12,BR,1682365913
339,sandnessjoen,66.0217,12.6316,2.58,57,0,2.06,NO,1682365885
340,aitape,-3.1374,142.3475,25.62,87,99,1.42,PG,1682365914
341,punta del este,-34.9667,-54.95,23.31,88,40,5.66,UY,1682365914
342,ash shatrah,31.4117,46.1742,23.99,54,100,4.77,IQ,1682365914
343,diego de almagro,-26.3667,-70.05,22.9,29,0,5.42,CL,1682365914
344,ilhabela,-23.7781,-45.3581,23.18,74,0,1.99,BR,1682365914
345,zaragoza,41.6561,-0.8773,21.56,45,0,1.34,ES,1682365913
346,natal,-5.795,-35.2094,30.36,65,20,6.69,BR,1682365707
347,arkhangel'sk,64.5401,40.5433,1.06,100,100,1.0,RU,1682365915
348,corupa,-26.4253,-49.2431,24.6,77,17,1.61,BR,1682365915
349,twon-brass,4.3151,6.2418,28.46,80,39,6.22,NG,1682365915
350,vogosca,43.9019,18.3481,10.93,87,75,1.54,BA,1682365915
351,alaghsas,17.0187,8.0168,31.85,12,5,4.84,NE,1682365915
352,tamanrasset,22.785,5.5228,25.95,10,20,1.03,DZ,1682365916
353,dickinson,29.4608,-95.0513,23.4,64,75,5.66,US,1682365916
354,torzhok,57.0436,34.9622,12.49,58,94,2.24,RU,1682365916
355,shakhtersk,48.0625,38.5167,10.5,96,100,0.91,UA,1682365916
356,nantucket,41.2835,-70.0995,14.06,78,20,0.0,US,1682365683
357,dingli,35.8614,14.3822,16.56,94,40,6.17,MT,1682365917
358,hassi messaoud,31.6804,6.0729,29.92,15,0,2.06,DZ,1682365917
359,ylitornio,66.3089,23.6773,-9.14,95,79,1.4,FI,1682365917
360,ciudad lazaro cardenas,17.9583,-102.2,29.14,55,9,4.49,MX,1682365917
361,sinazongwe,-17.2614,27.4618,25.59,47,41,1.29,ZM,1682365918
362,lagoa,39.05,-27.9833,16.07,83,31,7.51,PT,1682365918
363,ingeniero jacobacci,-41.3427,-69.5448,20.87,18,3,7.83,AR,1682365918
364,ramos arizpe,25.55,-100.9667,29.52,55,0,2.57,MX,1682365918
365,arraial do cabo,-22.9661,-42.0278,23.98,78,40,5.14,BR,1682365910
366,asasa,7.1,39.2,13.35,86,45,1.91,ET,1682365918
367,la passe,45.5549,-0.8967,12.13,88,100,1.72,FR,1682365905
368,saldanha,-33.0117,17.9442,15.03,93,16,2.15,ZA,1682365745
369,acajutla,13.5928,-89.8275,30.03,64,100,3.9,SV,1682365895
370,villa bruzual,9.3328,-69.1208,31.24,52,93,1.95,VE,1682365919
371,betioky,-23.7167,44.3833,18.47,87,2,1.39,MG,1682365919
372,den chai,17.9837,100.0522,26.63,58,0,0.83,TH,1682365919
373,mao,39.8885,4.2658,16.31,94,40,3.09,ES,1682365920
374,lexington,37.9887,-84.4777,13.01,36,0,4.12,US,1682365691
375,dawei,14.0833,98.2,25.79,82,9,0.75,MM,1682365920
376,bor,56.3567,44.0669,13.96,50,31,3.78,RU,1682365921
377,east london,-33.0153,27.9116,21.15,85,100,3.97,ZA,1682365787
378,markovo,57.3206,107.0881,-3.28,96,100,0.99,RU,1682365921
379,tazacorte,28.629,-17.9293,19.54,86,40,5.66,ES,1682365921
380,veraval,20.9,70.3667,26.71,66,24,5.79,IN,1682365921
381,cuito,-12.3833,16.9333,17.02,85,65,0.89,AO,1682365922
382,saint-philippe,-21.3585,55.7679,25.77,80,57,2.43,RE,1682365922
383,daru,-9.0763,143.2092,26.37,90,100,4.8,PG,1682365919
384,usogorsk,63.4106,48.6872,6.71,89,56,5.54,RU,1682365922
385,marte,12.3611,13.8246,33.49,33,100,4.29,NG,1682365922
386,bikenibeu village,1.3673,173.1241,27.98,83,40,4.12,KI,1682365923
387,callao,-12.0667,-77.15,27.16,65,0,7.2,PE,1682365887
388,villamontes,-21.25,-63.5,18.41,85,100,1.95,BO,1682365923
389,tura,25.5198,90.2201,21.32,57,0,1.49,IN,1682365923
390,khovd,48.0056,91.6419,5.75,33,61,3.26,MN,1682365923
391,trinidad,-14.8333,-64.9,32.99,55,20,2.06,BO,1682365924
392,preobrazheniye,42.9019,133.9064,2.9,67,71,3.17,RU,1682365924
393,bontang,0.1333,117.5,25.95,88,100,2.71,ID,1682365868
394,mana,5.6592,-53.7767,25.47,83,100,4.36,GF,1682365888
395,tvoroyri,61.5556,-6.8111,2.72,58,100,7.76,FO,1682365924
396,alto araguaia,-17.3147,-53.2153,25.37,66,79,2.51,BR,1682365924
397,vila velha,-20.3297,-40.2925,25.97,75,0,4.63,BR,1682365756
398,bam,29.106,58.357,23.36,27,86,2.5,IR,1682365925
399,nacozari viejo,30.4,-109.65,24.88,12,0,7.48,MX,1682365925
400,manggar,-2.8833,108.2667,27.4,79,100,2.6,ID,1682365925
401,bani walid,31.7566,13.9942,18.45,41,18,4.46,LY,1682365925
402,el calafate,-50.3408,-72.2768,11.77,76,31,5.36,AR,1682365827
403,omutinskiy,56.4745,67.6709,4.65,56,94,2.06,RU,1682365926
404,brackley,52.0333,-1.15,5.99,86,100,5.04,GB,1682365926
405,carnarvon,-24.8667,113.6333,19.5,64,94,6.13,AU,1682365723
406,bardai,11.65,7.2333,28.55,31,100,0.78,NG,1682365926
407,harper,4.375,-7.7169,27.26,84,100,2.53,LR,1682365927
408,bayport,40.7384,-73.0507,16.21,61,75,4.63,US,1682365927
409,erenhot,43.6475,111.9767,0.86,65,40,9.24,CN,1682365927
410,bac lieu,9.285,105.7244,28.38,73,66,4.36,VN,1682365927
411,ifrane,33.3333,-5.25,14.26,42,0,1.1,MA,1682365927
412,acarau,-2.8856,-40.12,26.4,84,82,4.21,BR,1682365928
413,bucerias,20.75,-105.3333,30.36,36,100,4.07,MX,1682365928
414,crane,31.3974,-102.3501,18.17,52,78,6.86,US,1682365923
415,bodaybo,57.8506,114.1933,-5.03,97,100,1.36,RU,1682365928
416,murzzuschlag,47.6,15.6833,8.62,92,100,3.71,AT,1682365929
417,lubuklinggau,-3.3,102.8667,23.5,97,100,0.44,ID,1682365743
418,kolwezi,-10.7148,25.4667,15.9,90,90,1.96,CD,1682365921
419,mazatlan,23.2167,-106.4167,27.17,71,100,3.58,MX,1682365802
420,wukari,7.85,9.7833,30.13,57,25,1.45,NG,1682365929
421,kurchum,48.5722,83.6542,8.83,71,71,3.12,KZ,1682365930
422,manuguru,17.981,80.7547,26.36,76,61,2.17,IN,1682365930
423,san-pedro,4.7485,-6.6363,27.19,86,61,2.41,CI,1682365930
424,magong,23.5654,119.5863,21.86,84,99,10.46,TW,1682365930
425,vanino,49.0869,140.2543,1.51,63,78,5.02,RU,1682365930
426,vorkuta,67.5,64.0,-7.02,94,100,3.89,RU,1682365931
427,sorong,-0.8833,131.25,26.95,80,23,0.86,ID,1682365931
428,viedma,-40.8135,-62.9967,24.89,26,0,7.47,AR,1682365931
429,west vero corridor,27.6378,-80.4858,28.34,79,40,6.17,US,1682365931
430,askoy,60.4092,5.226,4.86,90,75,6.17,NO,1682365932
431,ataq,14.5377,46.8319,24.11,56,23,3.73,YE,1682365932
432,ipoh,4.5841,101.0829,26.13,95,20,1.03,MY,1682365932
433,shirgaon,19.7,72.7,27.15,74,100,2.1,IN,1682365932
434,duong dong,10.2167,103.9667,27.0,89,20,1.54,VN,1682365932
435,moree,-29.4667,149.85,14.51,78,0,3.62,AU,1682365932
436,tanah merah,5.8,102.15,27.9,97,100,0.99,MY,1682365933
437,conde,-7.2597,-34.9075,28.7,74,40,6.69,BR,1682365933
438,twin falls,42.3505,-114.6445,12.94,54,75,9.26,US,1682365933
439,yemetsk,63.4721,41.7941,5.22,97,93,1.89,RU,1682365934
440,dursunbey,39.586,28.6257,9.87,53,81,1.74,TR,1682365934
441,antsiranana,-12.2787,49.2917,25.21,89,99,1.61,MG,1682365934
442,kapa'a,22.0752,-159.319,25.26,81,20,2.06,US,1682365931
443,tegal,-6.8694,109.1402,26.38,84,100,1.71,ID,1682365934
444,mangrol,21.1167,70.1167,26.79,64,10,5.21,IN,1682365935
445,leava,-14.3,-178.1667,27.89,76,100,2.85,WF,1682365935
446,broken hill,-31.95,141.4333,17.1,56,1,4.01,AU,1682365935
447,makhambet,47.6667,51.5833,19.93,34,100,11.31,KZ,1682365935
448,nouadhibou,20.931,-17.0347,19.99,77,0,8.75,MR,1682365903
449,spas-demensk,54.4122,34.0226,9.69,70,78,1.87,RU,1682365936
450,mormugao,15.4,73.8,25.14,80,0,3.87,IN,1682365799
451,kanggye,40.9695,126.5852,7.5,51,100,1.66,KP,1682365936
452,isangel,-19.55,169.2667,25.24,81,94,3.03,VU,1682365650
453,kiunga,-6.1219,141.2906,21.56,97,96,0.42,PG,1682365936
454,shingu,33.7333,135.9833,11.6,81,100,3.14,JP,1682365936
455,bodo,67.28,14.405,1.02,65,0,3.6,NO,1682365937
456,crato,-7.2342,-39.4094,30.84,48,0,4.63,BR,1682365937
457,laayoune,27.1622,-13.2032,20.19,100,88,8.23,EH,1682365937
458,minas de marcona,-15.2119,-75.1103,20.77,66,1,8.18,PE,1682365888
459,namibe,-15.1961,12.1522,23.86,69,7,4.25,AO,1682365937
460,buckie,57.6757,-2.9624,4.88,60,100,8.95,GB,1682365937
461,likiep,9.8251,169.3107,27.31,82,88,8.59,MH,1682365937
462,dubno,50.4169,25.7343,12.16,87,40,3.46,UA,1682365938
463,manaure,11.7751,-72.4445,27.74,65,42,7.19,CO,1682365938
464,island harbour,50.724,-1.2758,8.51,91,97,3.58,GB,1682365755
465,coquimbo,-29.9533,-71.3436,17.85,72,20,5.14,CL,1682365772
466,turrialba,9.9047,-83.6835,33.8,50,52,3.11,CR,1682365939
467,kyelang,32.5833,77.0333,-13.21,67,3,3.11,IN,1682365939
468,haapajarvi,63.75,25.3333,-0.31,98,100,2.01,FI,1682365939
469,turpan,42.9333,89.1667,18.29,15,33,0.42,CN,1682365939
470,dwarka,22.2394,68.9678,26.7,78,75,6.29,IN,1682365940
471,conception bay south,47.4999,-52.9981,3.64,95,100,7.81,CA,1682365940
472,dryden,49.7833,-92.7503,3.16,41,100,3.6,CA,1682365940
473,betong,5.7743,101.0723,21.88,98,100,1.1,TH,1682365940
474,blackwater,-23.5833,148.8833,16.09,83,1,4.7,AU,1682365940
475,miastko,54.0028,16.9826,11.25,90,100,2.51,PL,1682365941
476,chibougamau,49.9168,-74.3659,4.79,87,100,4.12,CA,1682365727
477,dalhart,36.0595,-102.5133,11.01,62,100,9.77,US,1682365942
478,tadine,-21.55,167.8833,24.33,82,100,5.57,NC,1682365942
479,pangody,65.85,74.4859,-4.08,93,100,10.75,RU,1682365898
480,buka,40.8108,69.1986,18.06,52,24,2.85,UZ,1682365891
481,ukmerge,55.25,24.75,14.26,64,7,4.15,LT,1682365943
482,ribeira brava,32.65,-17.0667,20.4,81,100,1.85,PT,1682365943
483,mahina,-17.5065,-149.489,28.87,79,40,2.06,PF,1682365916
484,tabou,4.423,-7.3528,27.18,85,100,2.52,CI,1682365944
485,keflavik,64.0049,-22.5624,6.95,75,75,3.09,IS,1682365893
486,matoury,4.8483,-52.3317,23.98,100,75,5.14,GF,1682365944
487,kismayo,-0.3582,42.5454,28.04,79,64,5.07,SO,1682365945
488,hefei,31.8639,117.2808,12.01,87,100,1.0,CN,1682365769
489,montecarlo,-26.5662,-54.757,27.09,51,84,1.27,AR,1682365945
490,cockburn town,21.4612,-71.1419,25.49,71,20,3.02,TC,1682365656
491,nuuk,64.1835,-51.7216,5.34,75,75,4.63,GL,1682365945
492,puerto tirol,-27.3722,-59.0821,22.04,73,100,4.63,AR,1682365945
493,saskatoon,52.1168,-106.6345,9.99,34,75,10.8,CA,1682365779
494,san luis de la loma,17.2706,-100.8939,30.32,60,76,4.15,MX,1682365920
495,gvardeysk,54.6477,21.0651,13.03,82,98,3.86,RU,1682365946
496,sinabang,2.4803,96.3801,27.07,82,100,0.92,ID,1682365888
497,sikonge,-5.6333,32.7667,18.59,92,100,0.86,TZ,1682365946
498,darya khan,31.7912,71.1039,28.87,13,88,3.05,PK,1682365946
499,mili,6.0815,171.735,27.94,81,100,9.17,MH,1682365688
500,calabozo,8.9242,-67.4293,32.26,45,100,1.94,VE,1682365946
501,ca mau,9.1769,105.15,27.11,80,42,1.89,VN,1682365947
502,villa de san antonio,14.3167,-87.6167,34.68,32,77,3.97,HN,1682365947
503,male,4.1748,73.5089,27.97,94,40,1.54,MV,1682365909
504,puerto baquerizo moreno,-0.9,-89.6,29.55,70,40,3.09,EC,1682365916
505,naze,28.3667,129.4833,19.51,81,98,6.74,JP,1682365947
506,ghanzi,-21.5667,21.7833,18.89,45,26,7.74,BW,1682365948
507,manismata,-2.4667,111.0333,22.98,99,100,0.32,ID,1682365948
508,port douglas,-16.4833,145.4667,25.1,84,93,7.56,AU,1682365948
509,maxixe,-23.8597,35.3472,22.9,83,0,2.24,MZ,1682365948
510,zhalantun,48.0,122.7167,3.16,44,100,3.16,CN,1682365948
511,olbia,40.9214,9.4856,18.03,48,0,7.72,IT,1682365948
512,gaalkacyo,6.7697,47.4308,27.86,67,50,7.25,SO,1682365949
513,touros,-5.1989,-35.4608,27.4,77,45,6.11,BR,1682365916
514,dhahran,26.3032,50.1353,29.45,50,0,3.6,SA,1682365949
515,raja,8.4596,25.678,26.14,57,99,1.87,SS,1682365949
516,namie,37.4833,141.0,2.62,65,3,2.15,JP,1682365949
517,mongo,12.1844,18.693,30.5,43,100,1.92,TD,1682365949
518,chimore,-16.9833,-65.1333,31.02,45,17,0.96,BO,1682365950
519,kill devil hills,36.0307,-75.676,15.0,63,0,6.17,US,1682365950
520,igreja,15.0333,-24.3333,22.13,73,1,5.52,CV,1682365950
521,tranas,58.0372,14.9782,4.66,89,100,3.54,SE,1682365950
522,sona,45.4388,10.8255,15.75,67,0,4.63,IT,1682365950
523,peace river,56.2501,-117.286,12.17,46,75,2.57,CA,1682365950
524,indramayu,-6.3264,108.32,27.11,80,100,2.63,ID,1682365950
525,ballina,-28.8667,153.5667,15.43,64,100,5.93,AU,1682365951
526,akureyri,65.6835,-18.0878,0.96,64,75,6.69,IS,1682365947
527,primorskiy,43.0983,131.5875,3.92,65,100,1.79,RU,1682365951
528,ponta delgada,37.7333,-25.6667,18.4,94,75,3.6,PT,1682365886
529,kirakira,-10.4544,161.9205,25.42,82,98,1.39,SB,1682365907
530,thai binh,20.45,106.3333,23.38,93,95,4.87,VN,1682365951
531,malango,-2.9627,119.9001,19.96,98,100,0.87,ID,1682365951
532,udachny,66.4167,112.4,-15.0,100,99,1.79,RU,1682365928
533,luorong,24.4058,109.6086,12.55,90,100,3.63,CN,1682365952
534,poso,-1.3959,120.7524,24.83,88,44,2.54,ID,1682365952
535,galliano,29.4422,-90.2992,22.78,53,75,3.6,US,1682365686
536,hotan,37.0997,79.9269,16.82,14,0,1.91,CN,1682365952
537,mayskiy,47.6931,40.1025,11.67,95,100,4.32,RU,1682365953
538,gharyan,32.1722,13.0203,18.23,29,1,2.74,LY,1682365953
539,srikakulam,18.3,83.9,26.39,66,54,1.84,IN,1682365953
540,byron bay,-28.65,153.6167,15.39,66,100,5.93,AU,1682365807
541,tateyama,34.9833,139.8667,13.4,64,65,5.52,JP,1682365917
542,naryn,41.4287,75.9911,10.52,52,99,1.99,KG,1682365954
543,la ferte-bernard,48.1863,0.6536,9.79,96,95,3.44,FR,1682365954
544,detroit lakes,46.8172,-95.8453,6.59,52,100,0.0,US,1682365708
545,laguna,38.421,-121.4238,25.91,47,0,1.54,US,1682365910
546,midvagur,62.0511,-7.1939,2.46,55,100,8.23,FO,1682365955
547,itoman,26.1247,127.6694,23.01,76,100,3.6,JP,1682365848
548,augustow,53.8432,22.9798,12.53,63,75,3.64,PL,1682365955
549,sao felix do xingu,-6.6447,-51.995,27.12,75,100,1.31,BR,1682365891
550,port augusta,-32.5,137.7667,17.66,50,53,1.88,AU,1682365933
551,taroa,8.7058,171.2275,27.76,83,79,9.19,MH,1682365955
552,igabi,10.7889,7.7749,27.23,36,100,2.7,NG,1682365956
553,gryazi,52.4966,39.9359,8.12,75,8,2.85,RU,1682365956
554,shalqar,47.8333,59.6,14.02,42,96,4.22,KZ,1682365956
555,campo gallo,-26.5833,-62.85,20.39,66,92,2.29,AR,1682365956
556,merritt,50.1123,-120.7942,9.28,71,94,1.81,CA,1682365956
557,whitefish,48.4111,-114.3376,10.86,74,75,5.66,US,1682365957
558,kotido,2.9806,34.1331,23.18,65,68,0.49,UG,1682365957
559,praia da vitoria,38.7333,-27.0667,20.14,73,20,6.0,PT,1682365906
560,dobris,49.7811,14.1672,11.33,77,100,4.24,CZ,1682365957
561,tynda,55.1667,124.7167,-8.0,94,100,1.59,RU,1682365957
562,fort stockton,30.894,-102.8793,17.03,55,0,5.14,US,1682365958
563,darwin,-12.4611,130.8418,25.99,69,29,1.54,AU,1682365958
564,bull savanna,17.8868,-77.5902,26.64,65,59,3.1,JM,1682365958
565,portland,45.5234,-122.6762,14.42,70,100,2.68,US,1682365720
566,mutuali,-14.8706,37.0044,17.55,87,3,1.66,MZ,1682365958
567,kayangel,8.0823,134.7173,27.97,71,11,1.43,PW,1682365938
568,labuan bajo,-8.4964,119.8877,25.01,88,38,1.85,ID,1682365959
569,argo,37.6333,22.7333,15.44,66,2,2.19,GR,1682365959
570,coahuayana de hidalgo,18.7,-103.6583,32.03,49,38,3.95,MX,1682365959
571,zaozersk,69.4005,32.4476,-7.32,80,7,4.04,RU,1682365937
572,kayenta,36.7278,-110.2546,18.9,22,99,10.01,US,1682365959
573,katabu,-4.9333,122.5167,24.24,95,79,1.37,ID,1682365959
574,boa vista,2.8197,-60.6733,25.99,83,75,2.06,BR,1682365959
575,jinzhou,41.1078,121.1417,12.19,48,100,7.02,CN,1682365960
576,horta,38.5333,-28.6333,17.8,91,20,5.36,PT,1682365904
577,chulakkurgan,43.765,69.1814,14.5,37,0,4.1,KZ,1682365960
578,ola,59.5833,151.2833,1.19,80,100,5.45,RU,1682365930
579,muurame,62.1333,25.6667,2.87,94,100,2.56,FI,1682365960
580,nemuro,43.3236,145.575,2.86,74,33,8.24,JP,1682365635
581,bereznik,62.8551,42.7072,9.77,81,87,3.63,RU,1682365960
582,gypsum,39.6469,-106.9517,14.79,26,75,5.14,US,1682365961
583,labytnangi,66.6572,66.4183,-7.47,87,12,5.47,RU,1682365955
